     3.02           OBSERVATION DATA    G: GPS              RINEX VERSION / TYPE
RINEXtoRINEX        Run by              20180221 203324 LCL PGM / RUN BY / DATE 
MRKNAM                                                      MARKER NAME         
MRKNUM                                                      MARKER NUMBER       
OBSERVER            AGENCY                                  OBSERVER / AGENCY   
GSD4e_4.0.4-P1 08/13SiRF                GSD4e               REC # / TYPE / VERS 
Antenna#            AntennaType                             ANT # / TYPE        
  4848578.0000  -327596.0000  4118308.0000                  APPROX POSITION XYZ 
        0.0000        0.0000        0.0000                  ANTENNA: DELTA H/E/N
G    4 C1C L1C D1C S1C                                      SYS / # / OBS TYPES 
     5.000                                                  INTERVAL            
  2018    02    21    19    05   58.0000000                 TIME OF FIRST OBS   
                                                            END OF HEADER       
> 2018 02 21 19 05 58.0000000  0  9      0.072619636000   
G02  25317522.176 5 133044385.015 5      2668.265 5        33.000 5
G12  24591248.875 7 129227562.074 7      2861.378 7        46.000 7
G14  23165169.931 3         0.000 3         0.000 3        23.000 3
G16  24976380.421 3         0.000 3         0.000 3        22.000 3
G21  22711619.956 7 119350189.427 7     -2765.513 7        47.000 7
G25  21655483.170 8 113800259.153 8      1848.859 8        49.000 8
G26  22708920.317 4 119337070.669 4     -2481.013 4        25.000 4
G31  20686144.689 5 108706289.057 5      -707.746 5        34.000 5
G32  24512315.970 5 128812946.849 5      3131.796 5        32.000 5
> 2018 02 21 19 06  3.0000000  0 10      0.072908473000   
G02  25320057.832 5 133057739.976 5      2668.959 5        33.000 5
G12  24593972.227 7 129241881.385 7      2861.281 7        46.000 7
G14  23167377.006 2         0.000 2         0.000 2        17.000 2
G16  24973572.490 3         0.000 3     -2946.447 3        23.000 3
G21  22708992.999 8 119336374.676 8     -2764.963 8        48.000 8
G25  21657245.555 8 113809517.548 8      1849.420 8        49.000 8
G26  22706580.611 4 119324673.438 4     -2482.187 4        27.000 4
G29  20359367.265 8 106989884.056 8      1302.516 8        49.000 8
G31  20685474.000 5 108702767.561 5      -705.882 5        35.000 5
G32  24515305.210 5 128828620.414 5      3130.406 5        32.000 5
> 2018 02 21 19 06  8.0000000  0 10      0.073197322000   
G02  25322598.732 5 133071083.496 5      2671.601 5        33.000 5
G12  24596694.069 7 129256183.762 7      2862.127 7        45.000 7
G14  23169611.164 4 121757074.463 4      2346.127 4        28.000 4
G16  24970744.867 4         0.000 4         0.000 4        24.000 4
G21  22706363.170 8 119322548.831 8     -2762.804 8        48.000 8
G25  21659008.456 8 113818763.656 8      1851.497 8        49.000 8
G26  22704199.856 4 119312260.477 4     -2480.335 4        27.000 4
G29  20360605.761 8 106996397.396 8      1305.128 8        49.000 8
G31  20684796.019 5 108699241.745 5      -702.132 5        34.000 5
G32  24518291.093 5 128844276.337 5      3132.340 5        32.000 5
> 2018 02 21 19 06 13.0000000  0  9      0.073486171000   
G02  25325146.687 5 133084434.094 5      2672.165 5        33.000 5
G12  24599415.649 7 129270487.763 7      2862.024 7        45.000 7
G14  23171844.267 4 121768804.498 4      2347.985 4        29.000 4
G21  22703731.729 8 119308730.513 8     -2761.531 8        48.000 8
G25  21660768.372 8 113828016.077 8      1851.980 8        49.000 8
G26  22701857.556 4 119299850.617 4     -2479.401 4        28.000 4
G29  20361847.928 8 107002922.029 8      1306.934 8        49.000 8
G31  20684126.081 5 108695730.196 5      -698.919 5        35.000 5
G32  24521273.670 5 128859932.886 5      3132.227 5        33.000 5
> 2018 02 21 19 06 18.0000000  0 10      0.073775015000   
G02  25327691.989 5 133097798.749 5      2674.234 5        33.000 5
G12  24602142.257 7 129284800.184 7      2861.938 7        45.000 7
G14  23174082.881 4 121780548.494 4      2349.069 4        28.000 4
G16  24965140.265 3         0.000 3         0.000 3        20.000 3
G21  22701104.345 8 119294926.521 8     -2760.150 8        48.000 8
G25  21662530.214 8 113837281.620 8      1852.889 8        50.000 8
G26  22699501.151 4 119287450.622 4     -2480.504 4        28.000 4
G29  20363092.387 8 107009464.703 8      1309.064 8        49.000 8
G31  20683449.318 5 108692239.778 5      -697.333 5        34.000 5
G32  24524250.063 5 128875596.933 5      3130.971 5        33.000 5
> 2018 02 21 19 06 23.0000000  0 10      0.074063860000   
G02  25330238.115 5 133111169.728 5      2674.665 5        33.000 5
G12  24604865.618 7 129299113.541 7      2861.938 7        45.000 7
G14  23176312.027 4 121792366.731 4      2347.868 4        27.000 4
G16  24962359.994 3         0.000 3         0.000 3        21.000 3
G21  22698480.361 8 119281129.391 8     -2759.113 8        48.000 8
G25  21664291.792 8 113846552.770 8      1854.233 8        49.000 8
G26  22697145.388 4 119275053.009 4     -2479.549 4        28.000 4
G29  20364337.139 8 107016017.918 8      1311.025 8        49.000 8
G31  20682796.432 5 108688762.841 5      -694.531 5        34.000 5
G32  24527229.153 5 128891261.159 5      3132.695 5        33.000 5
> 2018 02 21 19 06 28.0000000  0 10      0.074352724000   
G02  25332772.504 5 133124519.031 5      2677.236 5        33.000 5
G12  24607586.287 7 129313399.753 7      2863.564 7        46.000 7
G14  23178569.507 4 121804099.875 4      2353.353 4        27.000 4
G16  24959537.874 3         0.000 3         0.000 3        22.000 3
G21  22695850.056 8 119267311.047 8     -2756.717 8        48.000 8
G25  21666055.376 8 113855801.471 8      1856.188 8        49.000 8
G26  22694778.436 4 119262629.592 4     -2478.436 4        28.000 4
G29  20365581.597 8 107022553.588 8      1314.119 8        49.000 8
G31  20682137.175 5 108685271.423 5      -689.990 5        35.000 5
G32  24530204.035 5 128906897.264 5      3132.197 5        33.000 5
> 2018 02 21 19 06 33.0000000  0 10      0.074641564000   
G02  25335321.857 5 133137911.971 5      2678.570 5        33.000 5
G12  24610310.973 7 129327724.077 7      2863.687 7        45.000 7
G14  23180802.807 4 121815877.944 4      2354.749 4        28.000 4
G16  24956745.873 3         0.000 3         0.000 3        23.000 3
G21  22693230.043 8 119253536.783 8     -2755.147 8        48.000 8
G25  21667822.534 8 113865092.947 8      1857.389 8        49.000 8
G26  22692409.502 4 119250245.754 4     -2476.107 4        28.000 4
G29  20366833.811 8 107029137.017 8      1316.592 8        48.000 8
G31  20681474.841 5 108681830.834 5      -687.311 5        35.000 5
G32  24533181.229 5 128922570.525 5      3131.755 5        32.000 5
> 2018 02 21 19 06 38.0000000  0 10      0.074930410000   
G02  25337865.469 5 133151303.741 5      2679.130 5        32.000 5
G12  24613034.031 7 129342041.844 7      2863.631 7        45.000 7
G14  23183038.668 4         0.000 4      2356.879 4        27.000 4
G16  24953938.602 3         0.000 3         0.000 3        23.000 3
G21  22690608.200 8 119239761.903 8     -2754.320 8        48.000 8
G25  21669586.666 8 113874382.525 8      1858.400 8        49.000 8
G26  22690056.302 4 119237856.606 4     -2477.928 4        28.000 4
G29  20368084.690 8 107035723.431 8      1318.250 8        48.000 8
G31  20680843.696 5 108678396.150 5      -685.694 5        35.000 5
G32  24536152.239 5 128938236.285 5      3132.018 5        32.000 5
> 2018 02 21 19 06 43.0000000  0 10      0.075219262000   
G02  25340419.773 5 133164692.704 5      2680.715 5        32.000 5
G12  24615760.612 7 129356351.125 7      2864.405 7        46.000 7
G14  23185287.395 3         0.000 3         0.000 3        20.000 3
G16  24951112.669 4         0.000 4     -2944.995 4        24.000 4
G21  22687986.835 8 119225984.539 8     -2751.739 8        48.000 8
G25  21671353.898 8 113883668.391 8      1860.293 8        49.000 8
G26  22687738.134 5 119225460.565 5     -2475.511 5        30.000 5
G29  20369340.739 8 107042311.013 8      1321.303 8        48.000 8
G31  20680184.435 6 108674965.713 6      -682.374 6        37.000 6
G32  24539140.736 4 128953892.947 4      3133.675 4        29.000 4
> 2018 02 21 19 06 48.0000000  0 10      0.075508101000   
G02  25342961.311 5 133178109.569 5      2681.885 5        32.000 5
G12  24618488.081 7 129370683.070 7      2864.682 7        46.000 7
G14  23187526.548 1         0.000 1         0.000 1         4.000 1
G16  24948326.367 3         0.000 3         0.000 3        21.000 3
G21  22685369.013 8 119212235.790 8     -2750.426 8        48.000 8
G25  21673126.516 8 113892981.560 8      1861.433 8        48.000 8
G26  22685370.697 5 119213088.593 5     -2476.373 5        31.000 5
G29  20370600.253 8 107048930.806 8      1323.459 8        48.000 8
G31  20679539.316 6 108671570.590 6      -678.987 6        38.000 6
G32  24542137.500 5 128969571.050 5      3133.634 5        35.000 5
> 2018 02 21 19 06 53.0000000  0 10      0.075796957000   
G02  25345518.479 5 133191506.580 5      2684.287 5        31.000 5
G12  24621209.397 7 129384989.679 7      2865.021 7        46.000 7
G14  23189752.545 1         0.000 1         0.000 1         0.000 1
G16  24945555.346 3         0.000 3         0.000 3        22.000 3
G21  22682749.211 8 119198467.640 8     -2748.999 8        48.000 8
G25  21674891.582 8 113902274.042 8      1862.572 8        48.000 8
G26  22683000.608 5 119200692.689 5     -2475.439 5        31.000 5
G29  20371857.899 8 107055534.777 8      1325.768 8        48.000 8
G31  20678881.492 6 108668162.698 6      -676.862 6        38.000 6
G32  24545114.047 5 128985222.910 5      3134.331 5        35.000 5
> 2018 02 21 19 06 58.0000000  0 10      0.076085803000   
G02  25348067.061 5 133204925.472 5      2684.390 5        32.000 5
G12  24623933.284 7 129399312.803 7      2865.103 7        46.000 7
G14  23192007.424 2         0.000 2         0.000 2        17.000 2
G16  24942727.394 3         0.000 3         0.000 3        22.000 3
G21  22680133.306 8 119184721.963 8     -2747.829 8        48.000 8
G25  21676668.666 8 113911587.685 8      1863.803 8        48.000 8
G26  22680636.022 5 119188314.700 5     -2472.863 5        30.000 5
G29  20373118.407 8 107062164.793 8      1327.502 8        48.000 8
G31  20678242.362 6 108664784.047 6      -673.516 6        37.000 6
G32  24548089.896 5 129000890.102 5      3132.597 5        34.000 5
> 2018 02 21 19 07  3.0000000  0 10      0.076374659000   
G02  25350630.567 5 133218336.788 5      2686.370 5        32.000 5
G12  24626655.077 7 129413622.921 7      2865.401 7        46.000 7
G14  23194263.334 4         0.000 4         0.000 4        24.000 4
G16  24939920.917 3         0.000 3         0.000 3        21.000 3
G21  22677516.822 8 119170969.248 8     -2745.920 8        49.000 8
G25  21678439.202 8 113920892.915 8      1865.158 8        49.000 8
G26  22678284.825 5 119175925.078 5     -2474.095 5        30.000 5
G29  20374379.767 8 107068791.283 8      1329.791 8        48.000 8
G31  20677601.066 6 108661405.014 6      -670.181 6        37.000 6
G32  24551072.049 5 129016543.422 5      3133.623 5        34.000 5
> 2018 02 21 19 07  8.0000000  0  9      0.076663487000   
G02  25353178.247 5 133231797.932 5      2687.992 5        32.000 5
G12  24629388.015 7 129427977.610 7      2865.442 7        45.000 7
G14  23196510.235 4         0.000 4      2367.948 4        24.000 4
G21  22674909.394 8 119157267.124 8     -2745.150 8        48.000 8
G25  21680217.974 8 113930247.422 8      1865.959 8        49.000 8
G26  22675916.888 5 119163581.480 5     -2473.602 5        30.000 5
G29  20375653.522 8 107075471.914 8      1331.649 8        49.000 8
G31  20676956.384 6 108658083.183 6      -668.569 6        36.000 6
G32  24554053.532 5 129032240.218 5      3134.239 5        34.000 5
> 2018 02 21 19 07 13.0000000  0  9      0.076952337000   
G02  25355734.289 5 133245229.024 5      2687.844 5        32.000 5
G12  24632115.510 7 129442296.691 7      2865.592 7        45.000 7
G14  23198754.056 3         0.000 3         0.000 3        20.000 3
G21  22672295.200 8 119143535.441 8     -2743.892 8        48.000 8
G25  21681993.713 8 113939570.997 8      1866.611 8        49.000 8
G26  22673586.601 4 119151203.749 4     -2472.272 4        29.000 4
G29  20376919.483 8 107082126.582 8      1333.821 8        49.000 8
G31  20676331.719 6 108654738.550 6      -665.895 6        36.000 6
G32  24557039.297 5 129047900.522 5      3134.655 5        33.000 5
> 2018 02 21 19 07 18.0000000  0  9      0.077241184000   
G02  25358292.389 5 133258675.929 5      2690.086 5        32.000 5
G12  24634840.614 7 129456626.211 7      2866.212 7        45.000 7
G14  23201027.710 3         0.000 3         0.000 3        23.000 3
G21  22669686.051 8 119129820.267 8     -2741.937 8        48.000 8
G25  21683770.243 8 113948909.723 8      1868.535 8        49.000 8
G26  22671206.067 4 119138837.952 4     -2471.539 4        28.000 4
G29  20378191.716 8 107088801.213 8      1336.196 8        49.000 8
G31  20675684.416 5 108651416.945 5      -662.473 5        35.000 5
G32  24560011.791 5 129063570.079 5      3133.469 5        33.000 5
> 2018 02 21 19 07 23.0000000  0  9      0.077530040000   
G02  25360859.703 5 133272115.258 5      2692.652 5        32.000 5
G12  24637565.162 7 129470942.808 7      2866.674 7        45.000 7
G14  23203285.532 4         0.000 4      2370.042 4        24.000 4
G21  22667076.928 8 119116098.235 8     -2740.008 8        48.000 8
G25  21685543.491 8 113958240.202 8      1869.962 8        49.000 8
G26  22668848.277 4 119126460.680 4     -2471.662 4        28.000 4
G29  20379460.819 8 107095472.395 8      1338.567 8        49.000 8
G31  20675065.448 5 108648095.250 5      -659.435 5        35.000 5
G32  24562994.594 5 129079225.815 5      3134.260 5        33.000 5
> 2018 02 21 19 07 28.0000000  0 10      0.077818902000   
G02  25363414.077 5 133285551.583 5      2691.970 5        33.000 5
G12  24640285.262 7 129485251.026 7      2866.495 7        45.000 7
G14  23205593.244 4 121945603.601 4      2374.790 4        27.000 4
G16  24925931.769 3         0.000 3         0.000 3        22.000 3
G21  22664465.656 8 119102373.911 8     -2738.781 8        48.000 8
G25  21687319.647 8 113967566.968 8      1870.953 8        49.000 8
G26  22666514.089 4 119114076.447 4     -2471.523 4        28.000 4
G29  20380730.708 8 107102144.708 8      1340.677 8        49.000 8
G31  20674431.482 5 108644777.737 5      -657.756 5        35.000 5
G32  24565982.234 5 129094871.976 5      3134.707 5        33.000 5
> 2018 02 21 19 07 33.0000000  0 10      0.078107753000   
G02  25365973.609 5 133299013.014 5      2694.639 5        33.000 5
G12  24643012.130 7 129499578.816 7      2866.567 7        44.000 7
G14  23207851.309 4 121957466.813 4      2375.282 4        28.000 4
G16  24923111.044 3         0.000 3         0.000 3        21.000 3
G21  22661858.117 8 119088675.198 8     -2737.682 8        48.000 8
G25  21689099.649 8 113976917.942 8      1871.805 8        49.000 8
G26  22664175.543 4 119101713.304 4     -2470.528 4        28.000 4
G29  20382007.063 8 107108845.997 8      1342.350 8        50.000 8
G31  20673811.462 5 108641492.510 5      -654.615 5        35.000 5
G32  24568956.669 5 129110536.731 5      3133.537 5        33.000 5
> 2018 02 21 19 07 38.0000000  0 10      0.078396594000   
G02  25368542.568 5 133312496.986 5      2695.275 5        33.000 5
G12  24645744.011 7 129513923.948 7      2867.090 7        44.000 7
G14  23210076.695 3         0.000 3         0.000 3        23.000 3
G16  24920292.999 3         0.000 3         0.000 3        20.000 3
G21  22659253.517 8 119074999.935 8     -2736.184 8        48.000 8
G25  21690882.705 8 113986290.964 8      1873.088 8        49.000 8
G26  22661807.467 4 119089368.979 4     -2471.164 4        28.000 4
G29  20383285.868 8 107115574.160 8      1344.567 8        50.000 8
G31  20673198.131 5 108638237.437 5      -652.039 5        35.000 5
G32  24571942.382 4 129126217.762 4      3134.604 4        27.000 4
> 2018 02 21 19 07 43.0000000  0  9      0.078685432000   
G02  25371101.848 5 133325990.092 5      2697.373 5        32.000 5
G12  24648473.953 7 129528272.887 7      2867.587 7        45.000 7
G14  23212340.982 2         0.000 2         0.000 2        17.000 2
G21  22656653.084 8 119061334.565 8     -2734.558 8        48.000 8
G25  21692667.567 8 113995672.474 8      1874.416 8        49.000 8
G26  22659489.282 4 119077029.842 4     -2468.912 4        28.000 4
G29  20384569.103 8 107122315.606 8      1347.065 8        50.000 8
G31  20672574.620 5 108634998.861 5      -648.134 5        35.000 5
G32  24574911.860 1         0.000 1         0.000 1        11.000 1
> 2018 02 21 19 07 48.0000000  0 10      0.078974276000   
G02  25373656.021 4 133339481.355 4      2699.196 4        26.000 4
G12  24651203.856 7 129542614.628 7      2867.952 7        45.000 7
G14  23214570.057 3         0.000 3         0.000 3        20.000 3
G16  24914700.644 3         0.000 3         0.000 3        21.000 3
G21  22654053.392 8 119047668.094 8     -2732.684 8        48.000 8
G25  21694456.891 8 114005051.437 8      1875.736 8        49.000 8
G26  22657101.715 4 119064685.080 4     -2467.028 4        26.000 4
G29  20385849.338 8 107129059.287 8      1349.319 8        49.000 8
G31  20671970.416 6 108631765.749 6      -646.035 6        36.000 6
G32  24577891.078 4 129157573.364 4      3133.568 4        27.000 4
> 2018 02 21 19 07 53.0000000  0 10      0.079263128000   
G02  25376236.507 4 133352968.906 4      2699.795 4        29.000 4
G12  24653931.429 7 129556947.120 7      2868.367 7        45.000 7
G14  23216826.878 3         0.000 3         0.000 3        20.000 3
G16  24911832.959 3         0.000 3         0.000 3        20.000 3
G21  22651452.733 8 119033998.539 8     -2730.791 8        48.000 8
G25  21696240.024 8 114014425.864 8      1877.557 8        50.000 8
G26  22654739.424 2         0.000 2         0.000 2        17.000 2
G29  20387132.272 8 107135803.153 8      1352.146 8        49.000 8
G31  20671353.377 6 108628536.189 6      -642.530 6        36.000 6
G32  24580884.997 4 129173238.517 4      3135.235 4        28.000 4
> 2018 02 21 19 07 58.0000000  0 10      0.079551970000   
G02  25378805.065 4 133366477.771 4      2701.669 4        29.000 4
G12  24656660.738 7 129571295.735 7      2868.363 7        45.000 7
G14  23219092.361 3         0.000 3         0.000 3        19.000 3
G16  24908991.940 3         0.000 3         0.000 3        18.000 3
G21  22648855.546 8 119020351.229 8     -2729.707 8        48.000 8
G25  21698028.438 8 114023821.045 8      1878.179 8        50.000 8
G26  22652406.554 3         0.000 3         0.000 3        23.000 3
G29  20388421.978 8 107142572.603 8      1353.527 8        49.000 8
G31  20670734.223 6 108625335.507 6      -639.907 6        36.000 6
G32  24583880.027 5 129188918.511 5      3134.655 5        33.000 5
> 2018 02 21 19 08  3.0000000  0 10      0.079840820000   
G02  25381380.234 4 133379979.373 4      2702.700 4        29.000 4
G12  24659386.746 7 129585632.002 7      2869.578 7        45.000 7
G14  23221349.285 3         0.000 3         0.000 3        19.000 3
G16  24906110.889 2         0.000 2         0.000 2        17.000 2
G21  22646256.992 8 119006697.736 8     -2727.476 8        48.000 8
G25  21699815.397 8 114033208.577 8      1880.164 8        50.000 8
G26  22650074.291 3         0.000 3         0.000 3        23.000 3
G29  20389710.189 8 107149339.197 8      1356.436 8        49.000 8
G31  20670130.920 6 108622135.132 6      -636.875 6        36.000 6
G32  24586867.148 5 129204584.940 5      3135.543 5        34.000 5
> 2018 02 21 19 08  8.0000000  0 10      0.080129674000   
G02  25383964.075 4 133393481.555 4      2703.942 4        29.000 4
G12  24662112.574 7 129599963.324 7      2868.973 7        44.000 7
G14  23223707.428 3         0.000 3         0.000 3        22.000 3
G16  24903348.655 1         0.000 1         0.000 1        10.000 1
G21  22643659.624 8 118993045.474 8     -2726.337 8        48.000 8
G25  21701600.975 8 114042595.852 8      1880.954 8        50.000 8
G26  22647673.390 2         0.000 2         0.000 2        15.000 2
G29  20390997.933 8 107156110.335 8      1358.797 8        49.000 8
G31  20669516.187 6 108618942.688 6      -633.529 6        36.000 6
G32  24589852.162 5 129220245.298 5      3135.050 5        35.000 5
> 2018 02 21 19 08 13.0000000  0 10      0.080418529000   
G02  25386529.193 5 133406991.341 5      2706.292 5        30.000 5
G12  24664842.269 7 129614296.968 7      2869.835 7        43.000 7
G14  23226008.450 3         0.000 3         0.000 3        20.000 3
G16  24900555.049 2         0.000 2         0.000 2        15.000 2
G21  22641064.821 8 118979401.692 8     -2724.674 8        48.000 8
G25  21703385.783 8 114051990.083 8      1882.596 8        50.000 8
G26  22645370.599 3         0.000 3         0.000 3        20.000 3
G29  20392288.114 8 107162893.285 8      1360.901 8        49.000 8
G31  20668918.197 6 108615765.229 6      -630.378 6        36.000 6
G32  24592825.022 6 129235906.780 6      3134.968 6        36.000 6
> 2018 02 21 19 08 18.0000000  0 10      0.080707376000   
G02  25389107.347 5 133420520.630 5      2706.196 5        31.000 5
G12  24667572.963 7 129628644.862 7      2868.927 7        43.000 7
G14  23228210.821 3         0.000 3         0.000 3        18.000 3
G16  24897858.656 3         0.000 3         0.000 3        23.000 3
G21  22638472.394 8 118965778.396 8     -2723.724 8        48.000 8
G25  21705177.625 8 114061403.277 8      1882.879 8        49.000 8
G26  22643024.775 3         0.000 3         0.000 3        23.000 3
G29  20393584.510 8 107169699.893 8      1361.902 8        49.000 8
G31  20668306.330 6 108612614.842 6      -628.833 6        36.000 6
G32  24595798.862 5 129251581.410 5      3135.046 5        35.000 5
> 2018 02 21 19 08 23.0000000  0 10      0.080996218000   
G02  25391683.214 5 133434063.902 5      2708.181 5        32.000 5
G12  24670303.216 7 129643001.440 7      2870.153 7        43.000 7
G14  23230500.489 3         0.000 3         0.000 3        18.000 3
G16  24895066.848 4         0.000 4         0.000 4        24.000 4
G21  22635881.647 8 118952169.929 8     -2721.800 8        48.000 8
G25  21706972.957 8 114070829.809 8      1884.957 8        50.000 8
G26  22640641.317 3         0.000 3         0.000 3        22.000 3
G29  20394882.629 8 107176524.552 8      1364.760 8        49.000 8
G31  20667720.236 5 108609485.901 5      -625.749 5        35.000 5
G32  24598779.643 5 129267263.522 5      3135.419 5        34.000 5
> 2018 02 21 19 08 28.0000000  0 10      0.081285054000   
G02  25394259.046 5 133447624.992 5      2709.490 5        32.000 5
G12  24673039.104 7 129657370.631 7      2870.333 7        43.000 7
G14  23232804.550 4         0.000 4         0.000 4        24.000 4
G16  24892280.279 4         0.000 4     -2944.753 4        24.000 4
G21  22633293.137 8 118938580.217 8     -2720.450 8        48.000 8
G25  21708769.471 8 114080273.555 8      1885.589 8        50.000 8
G26  22638310.327 3         0.000 3     -2465.662 3        20.000 3
G29  20396185.886 8 107183371.215 8      1366.582 8        49.000 8
G31  20667125.835 5 108606382.300 5      -622.079 5        35.000 5
G32  24601767.537 5 129282957.006 5      3135.117 5        33.000 5
> 2018 02 21 19 08 33.0000000  0 10      0.081573911000   
G02  25396821.105 4 133461159.699 4      2711.071 4        26.000 4
G12  24675767.816 7 129671708.106 7      2870.857 7        42.000 7
G14  23235023.481 3         0.000 3         0.000 3        21.000 3
G16  24889468.249 4 130793995.500 4     -2940.145 4        25.000 4
G21  22630706.642 8 118924965.093 8     -2718.674 8        48.000 8
G25  21710562.185 8 114089690.331 8      1887.231 8        50.000 8
G26  22635958.225 3         0.000 3         0.000 3        23.000 3
G29  20397484.144 8 107190195.607 8      1369.395 8        49.000 8
G31  20666539.824 5 108603259.796 5      -619.493 5        35.000 5
G32  24604753.733 5 129298617.577 5      3135.949 5        34.000 5
> 2018 02 21 19 08 38.0000000  0 10      0.081862762000   
G02  25399399.862 4 133474710.158 4      2712.913 4        28.000 4
G12  24678491.103 6 129686056.076 6      2871.744 6        41.000 6
G14  23237338.640 1         0.000 1         0.000 1         4.000 1
G16  24886681.843 4         0.000 4         0.000 4        25.000 4
G21  22628118.000 8 118911366.688 8     -2716.986 8        48.000 8
G25  21712358.546 8 114099122.270 8      1888.765 8        50.000 8
G26  22633642.173 4         0.000 4         0.000 4        24.000 4
G29  20398786.184 8 107197039.873 8      1371.760 8        49.000 8
G31  20665940.166 5 108600160.569 5      -616.399 5        35.000 5
G32  24607740.531 5 129314287.307 5      3135.204 5        35.000 5
> 2018 02 21 19 08 43.0000000  0 10      0.082151613000   
G02  25401979.633 4 133488267.947 4      2713.344 4        28.000 4
G12  24681225.276 6 129700406.251 6      2872.216 6        41.000 6
G14  23239618.194 2         0.000 2         0.000 2        17.000 2
G16  24883862.778 4         0.000 4         0.000 4        25.000 4
G21  22625533.642 8 118897776.795 8     -2714.882 8        49.000 8
G25  21714150.888 8 114108561.089 8      1890.284 8        50.000 8
G26  22631326.360 4 118929031.690 4     -2465.730 4        25.000 4
G29  20400091.388 8 107203895.767 8      1374.110 8        49.000 8
G31  20665358.776 5 108597076.343 5      -613.504 5        35.000 5
G32  24610724.293 6 129329958.081 6      3136.128 6        36.000 6
> 2018 02 21 19 08 48.0000000  0 10      0.082440459000   
G02  25404562.556 4 133501839.298 4      2715.366 4        28.000 4
G12  24683955.485 6 129714764.596 6      2872.370 6        40.000 6
G14  23241887.770 3         0.000 3         0.000 3        21.000 3
G16  24881050.348 3         0.000 3         0.000 3        18.000 3
G21  22622949.932 8 118884201.306 8     -2713.538 8        49.000 8
G25  21715950.047 8 114118012.737 8      1891.300 8        50.000 8
G26  22628940.628 4 118916721.571 4     -2461.522 4        26.000 4
G29  20401399.545 8 107210769.179 8      1376.153 8        49.000 8
G31  20664786.316 6 108594013.051 6      -611.236 6        36.000 6
G32  24613704.220 6 129345635.704 6      3136.015 6        37.000 6
> 2018 02 21 19 08 53.0000000  0 10      0.082729303000   
G02  25407146.356 4 133515422.259 4      2715.525 4        28.000 4
G12  24686694.187 6 129729129.573 6      2871.904 6        40.000 6
G14  23244167.140 3         0.000 3         0.000 3        23.000 3
G16  24878264.321 3         0.000 3         0.000 3        19.000 3
G21  22620368.291 8 118870638.694 8     -2712.505 8        49.000 8
G25  21717748.884 8 114127475.686 8      1891.983 8        49.000 8
G26  22626567.716 3         0.000 3         0.000 3        19.000 3
G29  20402711.498 8 107217658.539 8      1377.585 8        49.000 8
G31  20664198.713 6 108590969.174 6      -608.315 6        37.000 6
G32  24616687.443 6 129361318.649 6      3135.415 6        37.000 6
> 2018 02 21 19 08 58.0000000  0  9      0.083018146000   
G02  25409727.940 3         0.000 3         0.000 3        22.000 3
G12  24689428.261 6 129743497.232 6      2871.863 6        41.000 6
G14  23246447.490 4         0.000 4      2402.635 4        28.000 4
G16  24875433.666 3         0.000 3         0.000 3        19.000 3
G21  22617787.246 8 118857085.207 8     -2710.997 8        49.000 8
G25  21719550.098 8 114136946.132 8      1892.722 8        49.000 8
G29  20404025.391 8 107224560.090 8      1380.141 8        49.000 8
G31  20663612.382 6 108587940.979 6      -606.519 6        36.000 6
G32  24619663.369 6 129377003.238 6      3135.610 6        36.000 6
> 2018 02 21 19 09  3.0000000  0 10      0.083306990000   
G02  25412329.605 4 133542611.417 4      2718.666 4        26.000 4
G12  24692160.174 7 129757863.527 7      2872.951 7        43.000 7
G14  23248718.563 5 122172909.645 5      2404.637 5        30.000 5
G16  24872637.405 4         0.000 4     -2944.384 4        25.000 4
G21  22615207.117 8 118843536.537 8     -2709.293 8        48.000 8
G25  21721355.726 8 114146419.767 8      1894.672 8        49.000 8
G26  22621867.807 1         0.000 1         0.000 1        11.000 1
G29  20405340.020 8 107231469.515 8      1382.491 8        49.000 8
G31  20663048.586 6 108584924.213 6      -602.516 6        36.000 6
G32  24622648.834 6 129392684.967 6      3136.144 6        36.000 6
> 2018 02 21 19 09  8.0000000  0 10      0.083595828000   
G02  25414901.972 3         0.000 3         0.000 3        23.000 3
G12  24694895.314 7 129772223.789 7      2873.405 7        44.000 7
G14  23251004.161 5 122184931.542 5      2405.646 5        30.000 5
G16  24869847.521 4         0.000 4         0.000 4        26.000 4
G21  22612628.177 8 118829988.119 8     -2707.648 8        48.000 8
G25  21723159.572 8 114155892.043 8      1896.082 8        49.000 8
G26  22619566.328 2         0.000 2         0.000 2        16.000 2
G29  20406653.758 8 107238382.250 8      1384.793 8        49.000 8
G31  20662469.514 6 108581914.172 6      -599.485 6        36.000 6
G32  24625628.323 6 129408359.286 6      3135.695 6        36.000 6
> 2018 02 21 19 09 13.0000000  0 10      0.083884683000   
G02  25417506.794 4         0.000 4      2720.914 4        25.000 4
G12  24697627.712 7 129786574.638 7      2873.074 7        45.000 7
G14  23253277.995 3         0.000 3         0.000 3        22.000 3
G16  24867053.043 4         0.000 4         0.000 4        26.000 4
G21  22610051.517 8 118816436.677 8     -2706.706 8        48.000 8
G25  21724958.524 8 114165359.600 8      1896.756 8        49.000 8
G26  22617243.506 3         0.000 3         0.000 3        23.000 3
G29  20407970.727 8 107245294.971 8      1386.412 8        49.000 8
G31  20661899.474 6 108578907.592 6      -597.025 6        36.000 6
G32  24628605.621 5 129424023.088 5      3135.518 5        35.000 5
> 2018 02 21 19 09 18.0000000  0 10      0.084173543000   
G02  25420105.489 5 133583387.969 5      2722.858 5        31.000 5
G12  24700358.067 7 129800919.748 7      2874.515 7        45.000 7
G14  23255592.449 4 122208967.160 4      2408.859 4        25.000 4
G16  24864273.958 4         0.000 4         0.000 4        24.000 4
G21  22607473.252 8 118802885.806 8     -2704.033 8        48.000 8
G25  21726759.748 8 114174826.095 8      1899.203 8        49.000 8
G26  22614976.549 4 118841497.942 4     -2456.944 4        27.000 4
G29  20409286.279 8 107252211.244 8      1389.649 8        49.000 8
G31  20661331.345 6 108575908.051 6      -593.480 6        36.000 6
G32  24631588.579 5 129439679.641 5      3134.752 5        34.000 5
> 2018 02 21 19 09 23.0000000  0 11      0.084462386000   
G02  25422697.856 5 133597010.951 5      2725.502 5        31.000 5
G04  -2744005.916 4         0.000 4     -1857.608 4        29.000 4
G12  24703091.932 7 129815293.305 7      2873.905 7        43.000 7
G14  23257871.688 3         0.000 3         0.000 3        20.000 3
G16  24861449.608 1         0.000 1         0.000 1        11.000 1
G21  22604898.939 8 118789369.699 8     -2702.909 8        48.000 8
G25  21728567.460 8 114184325.689 8      1899.589 8        49.000 8
G26  22612626.039 4 118829213.927 4     -2457.729 4        28.000 4
G29  20410608.633 8 107259165.263 8      1391.287 8        49.000 8
G31  20660763.078 6 108572949.786 6      -590.990 6        36.000 6
G32  24634572.128 5 129455363.297 5      3135.620 5        35.000 5
> 2018 02 21 19 09 28.0000000  0 11      0.084751235000   
G02  25425301.738 4 133610632.446 4      2726.949 4        25.000 4
G04  21237607.732 4         0.000 4         0.000 4        25.000 4
G12  24705825.877 7 129829661.283 7      2874.234 7        43.000 7
G14  23260146.413 2         0.000 2         0.000 2        16.000 2
G16  24858577.038 2         0.000 2         0.000 2        17.000 2
G21  22602325.345 7 118775854.371 7     -2701.205 7        47.000 7
G25  21730376.908 8 114193824.399 8      1900.841 8        49.000 8
G26  22610237.276 4 118816925.878 4     -2455.378 4        28.000 4
G29  20411933.987 8 107266123.045 8      1393.391 8        49.000 8
G31  20660206.663 5 108569998.807 5      -587.860 5        35.000 5
G32  24637554.364 5 129471040.051 5      3135.600 5        35.000 5
> 2018 02 21 19 09 33.0000000  0 11      0.085040091000   
G02  25427905.533 4 133624250.484 4      2725.840 4        25.000 4
G04  21235844.426 3         0.000 3         0.000 3        23.000 3
G12  24708560.075 7 129844019.592 7      2874.193 7        43.000 7
G14  23262473.770 3         0.000 3         0.000 3        19.000 3
G16  24855844.632 3         0.000 3         0.000 3        18.000 3
G21  22599756.275 7 118762335.816 7     -2700.261 7        47.000 7
G25  21732185.411 8 114203318.151 8      1901.908 8        50.000 8
G26  22607902.156 4 118804629.737 4     -2456.107 4        28.000 4
G29  20413257.949 8 107273080.513 8      1395.085 8        49.000 8
G31  20659646.670 6 108567051.028 6      -585.530 6        36.000 6
G32  24640541.168 5 129486705.816 5      3135.456 5        35.000 5
> 2018 02 21 19 09 38.0000000  0 10      0.085328927000   
G02  25430437.821 4 133637902.726 4      2729.899 4        25.000 4
G12  24711296.147 7 129858407.748 7      2874.700 7        42.000 7
G14  23264777.693 4 122256906.964 4      2414.658 4        27.000 4
G16  24853053.622 3         0.000 3         0.000 3        19.000 3
G21  22597192.386 8 118748853.488 8     -2698.152 8        48.000 8
G25  21733996.860 8 114212846.376 8      1903.257 8        50.000 8
G26  22605551.746 4         0.000 4         0.000 4        27.000 4
G29  20414589.548 8 107280077.113 8      1397.563 8        49.000 8
G31  20659091.951 6 108564145.955 6      -582.467 6        36.000 6
G32  24643523.675 6 129502399.994 6      3135.697 6        36.000 6
> 2018 02 21 19 09 43.0000000  0 10      0.085617784000   
G02  25433046.521 4         0.000 4         0.000 4        25.000 4
G12  24714026.889 6 129872765.891 6      2874.819 6        41.000 6
G14  23267064.463 4 122268972.018 4      2415.270 4        26.000 4
G16  24850222.739 3         0.000 3         0.000 3        21.000 3
G21  22594621.707 8 118735347.477 8     -2697.171 8        48.000 8
G25  21735804.998 8 114222349.206 8      1904.095 8        50.000 8
G26  22603252.210 4 118780071.115 4     -2454.208 4        27.000 4
G29  20415916.424 8 107287052.893 8      1399.324 8        49.000 8
G31  20658541.944 6 108561223.654 6      -579.680 6        36.000 6
G32  24646507.989 6 129518062.672 6      3135.723 6        36.000 6
> 2018 02 21 19 09 48.0000000  0 10      0.085906638000   
G02  25435647.302 4         0.000 4      2730.059 4        24.000 4
G12  24716764.585 7 129887130.583 7      2875.671 7        42.000 7
G14  23269366.190 4         0.000 4         0.000 4        26.000 4
G16  24847433.702 3         0.000 3         0.000 3        23.000 3
G21  22592053.695 8 118721854.487 8     -2695.057 8        48.000 8
G25  21737617.568 8 114231863.330 8      1906.096 8        50.000 8
G26  22600925.495 4 118767786.147 4     -2452.843 4        27.000 4
G29  20417246.906 8 107294044.622 8      1402.013 8        49.000 8
G31  20657986.707 6 108558320.861 6      -576.683 6        36.000 6
G32  24649494.053 6 129533730.545 6      3136.513 6        37.000 6
> 2018 02 21 19 09 53.0000000  0 10      0.086195484000   
G02  25438268.725 4 133678829.420 4      2733.138 4        29.000 4
G12  24719498.036 6 129901509.966 6      2875.034 6        41.000 6
G14  23271671.064 4         0.000 4      2419.858 4        27.000 4
G16  24844666.073 3         0.000 3         0.000 3        23.000 3
G21  22589490.841 8 118708382.597 8     -2693.784 8        48.000 8
G25  21739432.488 8 114241396.799 8      1906.722 8        50.000 8
G26  22598579.207 4 118755517.316 4     -2453.972 4        27.000 4
G29  20418580.042 8 107301060.296 8      1403.994 8        49.000 8
G31  20657442.807 6 108555445.648 6      -573.655 6        37.000 6
G32  24652479.579 6 129549411.592 6      3135.836 6        39.000 6
> 2018 02 21 19 09 58.0000000  0 10      0.086484332000   
G02  25440866.500 4 133692491.820 4      2732.937 4        29.000 4
G12  24722227.103 6 129915887.308 6      2876.619 6        40.000 6
G14  23273991.774 4 122305412.284 4      2422.808 4        29.000 4
G16  24841844.482 3         0.000 3         0.000 3        22.000 3
G21  22586928.797 8 118694914.965 8     -2691.963 8        48.000 8
G25  21741245.221 8 114250932.771 8      1908.677 8        50.000 8
G26  22596241.390 4 118743248.006 4     -2452.161 4        27.000 4
G29  20419917.573 8 107308083.072 8      1406.400 8        49.000 8
G31  20656892.941 6 108552581.081 6      -571.023 6        37.000 6
G32  24655461.767 6 129565089.092 6      3136.569 6        39.000 6
> 2018 02 21 19 10  3.0000000  0 10      0.086773180000   
G02  25443467.679 5 133706161.109 5      2733.456 5        30.000 5
G12  24724965.407 6 129930266.191 6      2876.430 6        40.000 6
G14  23276259.426 4         0.000 4         0.000 4        24.000 4
G16  24839054.171 2         0.000 2         0.000 2        17.000 2
G21  22584367.911 8 118681455.416 8     -2690.531 8        49.000 8
G25  21743061.438 8 114260475.056 8      1909.144 8        50.000 8
G26  22593919.768 4 118730981.806 4     -2454.136 4        27.000 4
G29  20421255.661 8 107315116.772 8      1408.099 8        49.000 8
G31  20656336.346 6 108549731.153 6      -568.143 6        36.000 6
G32  24658443.415 6 129580766.758 6      3135.466 6        38.000 6
> 2018 02 21 19 10  8.0000000  0 10      0.087062027000   
G02  25446065.012 5 133719838.181 5      2736.868 5        30.000 5
G12  24727710.133 6 129944647.825 6      2877.019 6        41.000 6
G14  23278588.926 4 122329645.474 4      2424.625 4        26.000 4
G16  24836241.953 3         0.000 3         0.000 3        19.000 3
G21  22581807.068 8 118668005.096 8     -2688.227 8        49.000 8
G25  21744875.839 8 114270024.800 8      1911.345 8        50.000 8
G26  22591574.652 4 118718720.133 4     -2451.956 4        27.000 4
G29  20422596.226 8 107322162.485 8      1410.947 8        49.000 8
G31  20655805.382 6 108546896.922 6      -565.316 6        36.000 6
G32  24661430.831 6 129596445.738 6      3136.169 6        38.000 6
> 2018 02 21 19 10 13.0000000  0 10      0.087350871000   
G02  25448664.156 4 133733526.772 4      2736.392 4        29.000 4
G12  24730446.389 7 129959035.947 7      2876.553 7        42.000 7
G14  23280897.804 4 122341778.711 4      2425.893 4        28.000 4
G16  24833409.189 2         0.000 2         0.000 2        15.000 2
G21  22579249.075 8 118654567.754 8     -2687.318 8        48.000 8
G25  21746694.274 8 114279585.738 8      1911.782 8        49.000 8
G26  22589249.922 4 118706466.599 4     -2449.589 4        27.000 4
G29  20423938.458 8 107329223.963 8      1412.451 8        49.000 8
G31  20655264.018 6 108544082.028 6      -563.453 6        36.000 6
G32  24664411.608 6 129612129.826 6      3135.949 6        37.000 6
> 2018 02 21 19 10 18.0000000  0 10      0.087639720000   
G02  25451249.598 4 133747214.359 4      2738.506 4        28.000 4
G12  24733183.179 7 129973417.875 7      2877.282 7        43.000 7
G14  23283210.801 4         0.000 4         0.000 4        25.000 4
G16  24830651.953 3         0.000 3         0.000 3        18.000 3
G21  22576693.606 8 118641130.675 8     -2685.707 8        48.000 8
G25  21748515.657 8 114289145.170 8      1913.137 8        49.000 8
G26  22586917.852 4 118694208.485 4     -2448.984 4        27.000 4
G29  20425280.321 8 107336288.498 8      1414.843 8        48.000 8
G31  20654729.473 5 108541273.977 5      -559.552 5        35.000 5
G32  24667397.193 6 129627806.180 6      3136.523 6        37.000 6
> 2018 02 21 19 10 23.0000000  0 10      0.087928568000   
G02  25453859.733 3         0.000 3         0.000 3        23.000 3
G12  24735917.932 7 129987803.102 7      2877.179 7        43.000 7
G14  23285564.815 3         0.000 3         0.000 3        21.000 3
G16  24827841.883 3         0.000 3         0.000 3        21.000 3
G21  22574138.863 8 118627703.410 8     -2684.270 8        48.000 8
G25  21750337.983 8 114298712.559 8      1914.471 8        49.000 8
G26  22584584.748 4         0.000 4         0.000 4        27.000 4
G29  20426630.086 8 107343365.563 8      1416.731 8        48.000 8
G31  20654207.498 6 108538481.983 6      -556.740 6        36.000 6
G32  24670377.593 6 129643484.290 6      3135.949 6        36.000 6
> 2018 02 21 19 10 28.0000000  0 10      0.088217414000   
G02  25456482.037 4 133774614.017 4      2741.606 4        29.000 4
G12  24738656.113 7 130002193.339 7      2877.826 7        43.000 7
G14  23287850.362 3         0.000 3         0.000 3        18.000 3
G16  24825003.417 3         0.000 3         0.000 3        21.000 3
G21  22571584.784 8 118614287.635 8     -2682.340 8        48.000 8
G25  21752161.187 8 114308289.561 8      1915.549 8        50.000 8
G26  22582260.986 4 118669708.493 4     -2449.928 4        26.000 4
G29  20427978.363 8 107350456.809 8      1418.722 8        48.000 8
G31  20653674.471 6 108535707.904 6      -553.456 6        36.000 6
G32  24673355.427 6 129659165.911 6      3135.528 6        36.000 6
> 2018 02 21 19 10 33.0000000  0  9      0.088506251000   
G02  25459079.886 4 133788340.801 4      2741.441 4        28.000 4
G12  24741396.743 7 130016599.445 7      2878.062 7        43.000 7
G14  23290129.783 4         0.000 4      2432.554 4        26.000 4
G21  22569036.492 8 118600894.267 8     -2681.119 8        48.000 8
G25  21753986.979 8 114317887.163 8      1916.822 8        50.000 8
G26  22579955.171 4 118657479.357 4     -2448.296 4        27.000 4
G29  20429332.568 8 107357573.202 8      1421.103 8        48.000 8
G31  20653157.206 6 108532962.663 6      -550.592 6        36.000 6
G32  24676344.926 5 129674861.832 5      3134.840 5        35.000 5
> 2018 02 21 19 10 38.0000000  0 10      0.088795102000   
G02  25461695.533 4 133802052.120 4      2743.556 4        28.000 4
G12  24744135.356 7 130030984.955 7      2878.668 7        42.000 7
G14  23292466.654 4         0.000 4      2434.422 4        27.000 4
G16  24819329.637 1         0.000 1         0.000 1         6.000 1
G21  22566485.148 8 118587486.863 8     -2679.189 8        48.000 8
G25  21755808.036 8 114327468.879 8      1918.402 8        50.000 8
G26  22577610.361 4 118645231.294 4     -2447.742 4        28.000 4
G29  20430684.227 8 107364678.219 8      1423.474 8        48.000 8
G31  20652623.640 6 108530209.750 6      -546.764 6        37.000 6
G32  24679324.898 5 129690535.692 5      3136.175 5        35.000 5
> 2018 02 21 19 10 43.0000000  0  9      0.089083953000   
G02  25464307.465 4 133815771.917 4      2745.820 4        28.000 4
G12  24746874.084 7 130045374.070 7      2878.992 7        42.000 7
G14  23294761.634 4 122414610.627 4      2436.542 4        28.000 4
G21  22563935.731 8 118574089.587 8     -2677.654 8        48.000 8
G25  21757633.696 8 114337058.792 8      1919.486 8        50.000 8
G26  22575261.791 4 118632988.471 4     -2448.331 4        29.000 4
G29  20432041.166 8 107371795.984 8      1425.543 8        48.000 8
G31  20652107.303 6 108527473.382 6      -544.479 6        36.000 6
G32  24682313.812 5 129706211.541 5      3137.001 5        35.000 5
> 2018 02 21 19 10 48.0000000  0 10      0.089372822000   
G02  25466924.347 5 133829469.724 5      2746.312 5        30.000 5
G12  24749608.417 7 130059736.086 7      2878.509 7        42.000 7
G14  23297072.133 4         0.000 4         0.000 4        25.000 4
G16  24813797.360 3         0.000 3         0.000 3        22.000 3
G21  22561383.747 8 118560671.820 8     -2676.577 8        49.000 8
G25  21759454.526 8 114346626.314 8      1919.855 8        50.000 8
G26  22572946.613 5 118620720.135 5     -2447.377 5        30.000 5
G29  20433392.991 8 107378895.873 8      1427.052 8        49.000 8
G31  20651580.860 6 108524722.903 6      -541.944 6        36.000 6
G32  24685287.217 5 129721858.887 5      3135.862 5        34.000 5
> 2018 02 21 19 10 53.0000000  0  9      0.089661660000   
G02  25469542.845 5 133843225.024 5      2747.051 5        31.000 5
G12  24752347.035 7 130074150.615 7      2878.940 7        42.000 7
G14  23299409.531 4 122438975.496 4      2440.740 4        25.000 4
G21  22558840.907 8 118547313.108 8     -2674.791 8        49.000 8
G25  21761284.333 8 114356251.017 8      1921.692 8        50.000 8
G26  22570626.320 5 118608505.913 5     -2446.925 5        30.000 5
G29  20434755.033 8 107386057.449 8      1429.536 8        49.000 8
G31  20651082.080 6 108522037.803 6      -539.204 6        37.000 6
G32  24688271.426 5 129737557.015 5      3135.872 5        34.000 5
