     3.02           OBSERVATION DATA    G: GPS              RINEX VERSION / TYPE
RINEXtoRINEX        Run by              20180224 135930 LCL PGM / RUN BY / DATE 
MRKNAM                                                      MARKER NAME         
MRKNUM                                                      MARKER NUMBER       
OBSERVER            AGENCY                                  OBSERVER / AGENCY   
GSD4e_4.0.4-P1 08/13SiRF                GSD4e               REC # / TYPE / VERS 
Antenna#            AntennaType                             ANT # / TYPE        
  4848572.0000  -327601.0000  4118308.0000                  APPROX POSITION XYZ 
        0.0000        0.0000        0.0000                  ANTENNA: DELTA H/E/N
G    4 C1C L1C D1C S1C                                      SYS / # / OBS TYPES 
     5.000                                                  INTERVAL            
  2018    02    24    12    49   23.0000000                 TIME OF FIRST OBS   
                                                            END OF HEADER       
> 2018 02 24 12 49 23.0000000  0  8      0.037208822000   
G05  24231179.260 7 127336436.414 7      3673.316 7        44.000 7
G12  23996150.921 7 126101309.160 7     -3949.041 7        43.000 7
G13  20627583.568 7 108399379.239 7      1162.210 7        45.000 7
G17  24025867.201 8 126257440.266 8     -1863.490 8        49.000 8
G19  24497119.440 7 128733869.497 7     -2994.082 7        45.000 7
G20  21521603.979 6 113097421.211 6      1785.937 6        37.000 6
G24  21592969.810 5 113471701.228 5     -1959.682 5        33.000 5
G28  23402384.872 7 122981029.510 7      2807.077 7        42.000 7
> 2018 02 24 12 49 28.0000000  0  9      0.037498598000   
G05  24234676.434 7 127354805.188 7      3673.865 7        44.000 7
G12  23992392.340 7 126081564.686 7     -3948.226 7        43.000 7
G13  20628689.777 7 108405193.407 7      1163.774 7        45.000 7
G15  20347854.586 6 106929454.514 6      -572.964 6        41.000 6
G17  24024093.721 8 126248127.564 8     -1861.556 8        49.000 8
G19  24494269.686 7 128718902.942 7     -2992.723 7        45.000 7
G20  21523300.304 6 113106357.461 6      1787.964 6        37.000 6
G24  21591111.153 5 113461903.924 5     -1959.400 5        34.000 5
G28  23405056.389 7 122995069.429 7      2808.795 7        42.000 7
> 2018 02 24 12 49 33.0000000  0  9      0.037788378000   
G05  24238170.057 7 127373170.297 7      3673.511 7        44.000 7
G12  23988638.272 7 126061818.927 7     -3947.789 7        43.000 7
G13  20629799.273 7 108411013.848 7      1165.946 7        45.000 7
G15  20347306.701 6 106926591.358 6      -570.618 6        41.000 6
G17  24022321.492 8 126238819.442 8     -1859.969 8        48.000 8
G19  24491419.361 7 128703935.380 7     -2992.276 7        44.000 7
G20  21525005.029 6 113115302.851 6      1790.833 6        36.000 6
G24  21589251.307 5 113452109.369 5     -1956.972 5        34.000 5
G28  23407728.973 7 123009111.955 7      2810.310 7        42.000 7
> 2018 02 24 12 49 38.0000000  0  9      0.038078153000   
G05  24241664.619 7 127391543.348 7      3673.285 7        43.000 7
G12  23984881.019 7 126042083.424 7     -3947.481 7        43.000 7
G13  20630910.821 7 108416852.071 7      1167.650 7        45.000 7
G15  20346762.275 6 106923747.381 6      -568.473 6        41.000 6
G17  24020553.486 8 126229527.503 8     -1858.604 8        48.000 8
G19  24488574.508 7 128688978.580 7     -2991.670 7        44.000 7
G20  21526707.820 6 113124269.076 6      1794.323 6        36.000 6
G24  21587384.788 5 113442328.741 5     -1956.253 5        34.000 5
G28  23410401.579 7 123023168.590 7      2810.957 7        42.000 7
> 2018 02 24 12 49 43.0000000  0  9      0.038367931000   
G05  24245160.824 7 127409912.025 7      3673.398 7        43.000 7
G12  23981121.435 7 126022345.678 7     -3946.968 7        43.000 7
G13  20632023.584 7 108422695.684 7      1169.271 7        45.000 7
G15  20346222.179 6 106920910.159 6      -566.030 6        40.000 6
G17  24018786.203 8 126220239.372 8     -1856.808 8        48.000 8
G19  24485730.489 7 128674020.158 7     -2991.146 7        45.000 7
G20  21528409.924 5 113133243.694 5      1797.269 5        34.000 5
G24  21585503.009 4 113432549.923 4     -1956.510 4        27.000 4
G28  23413078.137 6 123037226.999 6      2812.291 6        41.000 6
> 2018 02 24 12 49 48.0000000  0  9      0.038657703000   
G05  24248657.996 7 127428289.788 7      3673.911 7        43.000 7
G12  23977365.574 7 126002619.493 7     -3946.331 7        43.000 7
G13  20633138.630 7 108428558.287 7      1172.432 7        46.000 7
G15  20345686.347 6 106918093.340 6      -563.187 6        40.000 6
G17  24017020.520 7 126210968.643 7     -1854.766 7        47.000 7
G19  24482885.699 7 128659073.685 7     -2990.151 7        45.000 7
G20  21530115.797 5 113142240.115 5      1799.752 5        34.000 5
G24  21583632.813 4 113422647.981 4     -1952.497 4        27.000 4
G28  23415754.570 6 123051300.750 6      2813.943 6        41.000 6
> 2018 02 24 12 49 53.0000000  0  9      0.038947484000   
G05  24252152.886 7 127446654.559 7      3673.953 7        43.000 7
G12  23973609.600 7 125982882.719 7     -3945.787 7        43.000 7
G13  20634250.995 7 108434417.805 7      1174.085 7        46.000 7
G15  20345153.423 6 106915274.805 6      -561.411 6        41.000 6
G17  24015256.620 7 126201693.286 7     -1853.164 7        47.000 7
G19  24480039.754 7 128644117.143 7     -2989.864 7        45.000 7
G20  21531834.986 5 113151236.514 5      1801.189 5        34.000 5
G24  21581791.209 4 113412878.291 4     -1951.830 4        28.000 4
G28  23418431.428 6 123065367.731 6      2815.175 6        41.000 6
> 2018 02 24 12 49 58.0000000  0  9      0.039237262000   
G05  24255648.494 7 127465025.105 7      3674.301 7        44.000 7
G12  23969854.993 7 125963154.125 7     -3945.079 7        42.000 7
G13  20635370.157 7 108440293.040 7      1176.189 7        45.000 7
G15  20344618.994 6 106912473.363 6      -558.568 6        41.000 6
G17  24013492.174 7 126192432.062 7     -1850.906 7        47.000 7
G19  24477191.659 7 128629169.300 7     -2988.540 7        45.000 7
G20  21533558.654 5 113160251.453 5      1804.381 5        34.000 5
G24  21579954.857 5 113403120.202 5     -1949.623 5        30.000 5
G28  23421109.048 6 123079446.719 6      2816.612 6        41.000 6
> 2018 02 24 12 50  3.0000000  0  9      0.039527040000   
G05  24259143.316 7 127483394.516 7      3674.583 7        44.000 7
G12  23966101.023 7 125943426.878 7     -3944.254 7        42.000 7
G13  20636490.802 7 108446177.072 7      1178.308 7        45.000 7
G15  20344089.930 6 106909682.116 6      -556.059 6        41.000 6
G17  24011733.105 7 126183178.091 7     -1848.685 7        47.000 7
G19  24474347.326 7 128614223.229 7     -2988.135 7        44.000 7
G20  21535280.370 5 113169278.132 5      1807.301 5        35.000 5
G24  21578078.391 5 113393367.299 5     -1949.372 5        30.000 5
G28  23423789.929 6 123093530.846 6      2818.608 6        41.000 6
> 2018 02 24 12 50  8.0000000  0  9      0.039816821000   
G05  24262640.525 7 127501759.478 7      3675.384 7        44.000 7
G12  23962348.382 7 125923697.617 7     -3943.227 7        42.000 7
G13  20637612.309 7 108452066.630 7      1181.038 7        45.000 7
G15  20343559.891 7 106906897.740 7      -553.575 7        42.000 7
G17  24009973.270 8 126173928.094 8     -1846.858 8        48.000 8
G19  24471504.243 7 128599275.731 7     -2986.790 7        44.000 7
G20  21536996.847 6 113178313.279 6      1811.078 6        36.000 6
G24  21576210.836 5 113383616.228 5     -1946.622 5        30.000 5
G28  23426471.140 6 123107616.704 6      2819.952 6        41.000 6
> 2018 02 24 12 50 13.0000000  0  9      0.040106595000   
G05  24266137.410 7 127520135.733 7      3674.758 7        45.000 7
G12  23958598.552 7 125903982.127 7     -3943.196 7        42.000 7
G13  20638735.196 7 108457977.441 7      1182.916 7        45.000 7
G15  20343031.686 7 106904136.004 7      -551.461 7        42.000 7
G17  24008217.571 8 126164697.835 8     -1845.319 8        48.000 8
G19  24468664.065 7 128584342.493 7     -2986.308 7        45.000 7
G20  21538715.251 5 113187372.550 5      1812.279 5        35.000 5
G24  21574365.865 5 113373882.842 5     -1947.094 5        30.000 5
G28  23429155.875 7 123121720.083 7      2820.558 7        42.000 7
> 2018 02 24 12 50 18.0000000  0  9      0.040396375000   
G05  24269632.513 7 127538503.622 7      3675.425 7        45.000 7
G12  23954842.657 7 125884260.765 7     -3941.811 7        43.000 7
G13  20639862.754 7 108463889.796 7      1185.246 7        46.000 7
G15  20342512.038 7 106901377.234 7      -548.618 7        42.000 7
G17  24006458.839 8 126155467.636 8     -1843.256 8        48.000 8
G19  24465822.102 7 128569403.878 7     -2984.779 7        45.000 7
G20  21540435.280 5 113196436.365 5      1816.045 5        35.000 5
G24  21572537.417 5 113364147.293 5     -1944.364 5        30.000 5
G28  23431844.770 7 123135821.322 7      2822.754 7        42.000 7
